{"type":"FeatureCollection","crs":{"type":"name","properties":{"name":"EPSG:4326"}},"features":[{"type":"Feature","geometry":{"type":"Point","coordinates":[13.887062,45.885986]},"properties":{"id":"1","title":"AjdovÅ¡Äina zahod","summary":"AjdovÅ¡Äina zahod","updated":"2024-02-17T14:54:49.000+01:00","burja_veter":"14.0","burja_sunki":"16.0"}},{"type":"Feature","geometry":{"type":"Point","coordinates":[13.95812,45.82479]},"properties":{"id":"2","title":"ManÄe","summary":"ManÄe","updated":"2024-02-17T14:54:49.000+01:00","burja_veter":"10.4","burja_sunki":"12.0"}},{"type":"Feature","geometry":{"type":"Point","coordinates":[13.967603,45.80403]},"properties":{"id":"3","title":"Podnanos","summary":"Podnanos","updated":"2024-02-17T14:54:50.000+01:00","burja_veter":"10.0","burja_sunki":"10.0"}},{"type":"Feature","geometry":{"type":"Point","coordinates":[13.822906,45.8883]},"properties":{"id":"4","title":"PotoÄe","summary":"PotoÄe","updated":"2024-02-17T14:54:49.000+01:00","burja_veter":"9.3","burja_sunki":"14.0"}},{"type":"Feature","geometry":{"type":"Point","coordinates":[13.711239,45.94693]},"properties":{"id":"5","title":"Å mihel","summary":"Å mihel","updated":"2024-02-17T14:54:50.000+01:00","burja_veter":"11.1","burja_sunki":"13.0"}},{"type":"Feature","geometry":{"type":"Point","coordinates":[13.755232,45.921715]},"properties":{"id":"6","title":"Vitovlje","summary":"Vitovlje","updated":"2024-02-17T14:54:50.000+01:00","burja_veter":"8.6","burja_sunki":"13.0"}},{"type":"Feature","geometry":{"type":"Point","coordinates":[13.917871,45.87594]},"properties":{"id":"7","title":"Å½apuÅ¾e","summary":"Å½apuÅ¾e","updated":"2024-02-17T14:54:49.000+01:00","burja_veter":"10.4","burja_sunki":"15.0"}},{"type":"Feature","geometry":{"type":"Point","coordinates":[13.931549,45.868134]},"properties":{"id":"8","title":"Zemono","summary":"Zemono","updated":"2024-02-17T14:54:50.000+01:00","burja_veter":"12.2","burja_sunki":"16.0"}}],"properties":{"title":"Merilniki vetra","subtitle":"Lokacije merilnikov hitrosti vetra","updated":"2024-02-17T14:55:37.821+01:00","link":{"href":"http://www.promet.si"},"author":{"name":"DARS d.d.","email":"info@promet.si"},"xmlns":"http://www.w3.org/2005/Atom","xmlns_georss":"http://www.georss.org/georss","xmlns_burja":"http://www.dars.si/burja"}}